$GPGGA,090000.00,3116.79675225,N,12128.08194604,E,1,05,2.87,160.00,M,-21.3213,M,,*73
$GPGGA,090000.10,3116.79675225,N,12128.08194604,E,1,05,2.87,160.00,M,-21.3213,M,,*72
$GPGGA,090000.20,3116.79675225,N,12128.08194604,E,1,05,2.87,160.00,M,-21.3213,M,,*71
$GPGGA,090000.30,3116.79675225,N,12128.08194604,E,1,05,2.87,160.00,M,-21.3213,M,,*70
$GPGGA,090000.40,3116.79675225,N,12128.08194604,E,1,05,2.87,160.00,M,-21.3213,M,,*77
$GPGGA,090000.50,3116.79675225,N,12128.08194604,E,1,05,2.87,160.00,M,-21.3213,M,,*76
$GPGGA,090000.60,3116.79675225,N,12128.08194604,E,1,05,2.87,160.00,M,-21.3213,M,,*75
$GPGGA,090000.70,3116.79675225,N,12128.08194604,E,1,05,2.87,160.00,M,-21.3213,M,,*74
$GPGGA,090000.80,3116.79675225,N,12128.08194604,E,1,05,2.87,160.00,M,-21.3213,M,,*7B
$GPGGA,090000.90,3116.79675225,N,12128.08194604,E,1,05,2.87,160.00,M,-21.3213,M,,*7A
$GPGGA,090001.00,3116.79675225,N,12128.08194604,E,1,05,2.87,160.00,M,-21.3213,M,,*72
$GPGGA,090001.10,3116.79675225,N,12128.08194604,E,1,05,2.87,160.00,M,-21.3213,M,,*73
$GPGGA,090001.20,3116.79675225,N,12128.08194604,E,1,05,2.87,160.00,M,-21.3213,M,,*70
$GPGGA,090001.30,3116.79675225,N,12128.08194604,E,1,05,2.87,160.00,M,-21.3213,M,,*71
$GPGGA,090001.40,3116.79675225,N,12128.08194604,E,1,05,2.87,160.00,M,-21.3213,M,,*76
$GPGGA,090001.50,3116.79675225,N,12128.08194604,E,1,05,2.87,160.00,M,-21.3213,M,,*77
$GPGGA,090001.60,3116.79675225,N,12128.08194604,E,1,05,2.87,160.00,M,-21.3213,M,,*74
$GPGGA,090001.70,3116.79675225,N,12128.08194604,E,1,05,2.87,160.00,M,-21.3213,M,,*75
$GPGGA,090001.80,3116.79675225,N,12128.08194604,E,1,05,2.87,160.00,M,-21.3213,M,,*7A
$GPGGA,090001.90,3116.79675225,N,12128.08194604,E,1,05,2.87,160.00,M,-21.3213,M,,*7B
$GPGGA,090002.00,3116.79675225,N,12128.08194604,E,1,05,2.87,160.00,M,-21.3213,M,,*71
$GPGGA,090002.10,3116.79675225,N,12128.08194604,E,1,05,2.87,160.00,M,-21.3213,M,,*70
$GPGGA,090002.20,3116.79675225,N,12128.08194604,E,1,05,2.87,160.00,M,-21.3213,M,,*73
$GPGGA,090002.30,3116.79675225,N,12128.08194604,E,1,05,2.87,160.00,M,-21.3213,M,,*72
$GPGGA,090002.40,3116.79675225,N,12128.08194604,E,1,05,2.87,160.00,M,-21.3213,M,,*75
$GPGGA,090002.50,3116.79675225,N,12128.08194604,E,1,05,2.87,160.00,M,-21.3213,M,,*74
$GPGGA,090002.60,3116.79675225,N,12128.08194604,E,1,05,2.87,160.00,M,-21.3213,M,,*77
$GPGGA,090002.70,3116.79675225,N,12128.08194604,E,1,05,2.87,160.00,M,-21.3213,M,,*76
$GPGGA,090002.80,3116.79675225,N,12128.08194604,E,1,05,2.87,160.00,M,-21.3213,M,,*79
$GPGGA,090002.90,3116.79675225,N,12128.08194604,E,1,05,2.87,160.00,M,-21.3213,M,,*78
$GPGGA,090003.00,3116.79675225,N,12128.08194604,E,1,05,2.87,160.00,M,-21.3213,M,,*70
$GPGGA,090003.10,3116.79675225,N,12128.08194604,E,1,05,2.87,160.00,M,-21.3213,M,,*71
$GPGGA,090003.20,3116.79675225,N,12128.08194604,E,1,05,2.87,160.00,M,-21.3213,M,,*72
$GPGGA,090003.30,3116.79675225,N,12128.08194604,E,1,05,2.87,160.00,M,-21.3213,M,,*73
$GPGGA,090003.40,3116.79675225,N,12128.08194604,E,1,05,2.87,160.00,M,-21.3213,M,,*74
$GPGGA,090003.50,3116.79675225,N,12128.08194604,E,1,05,2.87,160.00,M,-21.3213,M,,*75
$GPGGA,090003.60,3116.79675225,N,12128.08194604,E,1,05,2.87,160.00,M,-21.3213,M,,*76
$GPGGA,090003.70,3116.79675225,N,12128.08194604,E,1,05,2.87,160.00,M,-21.3213,M,,*77
$GPGGA,090003.80,3116.79675225,N,12128.08194604,E,1,05,2.87,160.00,M,-21.3213,M,,*78
$GPGGA,090003.90,3116.79675225,N,12128.08194604,E,1,05,2.87,160.00,M,-21.3213,M,,*79
$GPGGA,090004.00,3116.79675225,N,12128.08194604,E,1,05,2.87,160.00,M,-21.3213,M,,*77
$GPGGA,090004.10,3116.79675225,N,12128.08194604,E,1,05,2.87,160.00,M,-21.3213,M,,*76
$GPGGA,090004.20,3116.79675225,N,12128.08194604,E,1,05,2.87,160.00,M,-21.3213,M,,*75
$GPGGA,090004.30,3116.79675225,N,12128.08194604,E,1,05,2.87,160.00,M,-21.3213,M,,*74
$GPGGA,090004.40,3116.79675225,N,12128.08194604,E,1,05,2.87,160.00,M,-21.3213,M,,*73
$GPGGA,090004.50,3116.79675225,N,12128.08194604,E,1,05,2.87,160.00,M,-21.3213,M,,*72
$GPGGA,090004.60,3116.79675225,N,12128.08194604,E,1,05,2.87,160.00,M,-21.3213,M,,*71
$GPGGA,090004.70,3116.79675225,N,12128.08194604,E,1,05,2.87,160.00,M,-21.3213,M,,*70
$GPGGA,090004.80,3116.79675225,N,12128.08194604,E,1,05,2.87,160.00,M,-21.3213,M,,*7F
$GPGGA,090004.90,3116.79675225,N,12128.08194604,E,1,05,2.87,160.00,M,-21.3213,M,,*7E
$GPGGA,090005.00,3116.79675225,N,12128.08194604,E,1,05,2.87,160.00,M,-21.3213,M,,*76
$GPGGA,090005.10,3116.79675225,N,12128.08194604,E,1,05,2.87,160.00,M,-21.3213,M,,*77
$GPGGA,090005.20,3116.79675225,N,12128.08194604,E,1,05,2.87,160.00,M,-21.3213,M,,*74
$GPGGA,090005.30,3116.79675225,N,12128.08194604,E,1,05,2.87,160.00,M,-21.3213,M,,*75
$GPGGA,090005.40,3116.79675225,N,12128.08194604,E,1,05,2.87,160.00,M,-21.3213,M,,*72
$GPGGA,090005.50,3116.79675225,N,12128.08194604,E,1,05,2.87,160.00,M,-21.3213,M,,*73
$GPGGA,090005.60,3116.79675225,N,12128.08194604,E,1,05,2.87,160.00,M,-21.3213,M,,*70
$GPGGA,090005.70,3116.79675225,N,12128.08194604,E,1,05,2.87,160.00,M,-21.3213,M,,*71
$GPGGA,090005.80,3116.79675225,N,12128.08194604,E,1,05,2.87,160.00,M,-21.3213,M,,*7E
$GPGGA,090005.90,3116.79675225,N,12128.08194604,E,1,05,2.87,160.00,M,-21.3213,M,,*7F
$GPGGA,090006.00,3116.79675225,N,12128.08194604,E,1,05,2.87,160.00,M,-21.3213,M,,*75
$GPGGA,090006.10,3116.79675225,N,12128.08194604,E,1,05,2.87,160.00,M,-21.3213,M,,*74
$GPGGA,090006.20,3116.79675225,N,12128.08194604,E,1,05,2.87,160.00,M,-21.3213,M,,*77
$GPGGA,090006.30,3116.79675225,N,12128.08194604,E,1,05,2.87,160.00,M,-21.3213,M,,*76
$GPGGA,090006.40,3116.79675225,N,12128.08194604,E,1,05,2.87,160.00,M,-21.3213,M,,*71
$GPGGA,090006.50,3116.79675225,N,12128.08194604,E,1,05,2.87,160.00,M,-21.3213,M,,*70
$GPGGA,090006.60,3116.79675225,N,12128.08194604,E,1,05,2.87,160.00,M,-21.3213,M,,*73
$GPGGA,090006.70,3116.79675225,N,12128.08194604,E,1,05,2.87,160.00,M,-21.3213,M,,*72
$GPGGA,090006.80,3116.79675225,N,12128.08194604,E,1,05,2.87,160.00,M,-21.3213,M,,*7D
$GPGGA,090006.90,3116.79675225,N,12128.08194604,E,1,05,2.87,160.00,M,-21.3213,M,,*7C
$GPGGA,090007.00,3116.79675225,N,12128.08194604,E,1,05,2.87,160.00,M,-21.3213,M,,*74
$GPGGA,090007.10,3116.79675225,N,12128.08194604,E,1,05,2.87,160.00,M,-21.3213,M,,*75
$GPGGA,090007.20,3116.79675225,N,12128.08194604,E,1,05,2.87,160.00,M,-21.3213,M,,*76
$GPGGA,090007.30,3116.79675225,N,12128.08194604,E,1,05,2.87,160.00,M,-21.3213,M,,*77
$GPGGA,090007.40,3116.79675225,N,12128.08194604,E,1,05,2.87,160.00,M,-21.3213,M,,*70
$GPGGA,090007.50,3116.79675225,N,12128.08194604,E,1,05,2.87,160.00,M,-21.3213,M,,*71
$GPGGA,090007.60,3116.79675225,N,12128.08194604,E,1,05,2.87,160.00,M,-21.3213,M,,*72
$GPGGA,090007.70,3116.79675225,N,12128.08194604,E,1,05,2.87,160.00,M,-21.3213,M,,*73
$GPGGA,090007.80,3116.79675225,N,12128.08194604,E,1,05,2.87,160.00,M,-21.3213,M,,*7C
$GPGGA,090007.90,3116.79675225,N,12128.08194604,E,1,05,2.87,160.00,M,-21.3213,M,,*7D
$GPGGA,090008.00,3116.79675225,N,12128.08194604,E,1,05,2.87,160.00,M,-21.3213,M,,*7B
$GPGGA,090008.10,3116.79675225,N,12128.08194604,E,1,05,2.87,160.00,M,-21.3213,M,,*7A
$GPGGA,090008.20,3116.79675225,N,12128.08194604,E,1,05,2.87,160.00,M,-21.3213,M,,*79
$GPGGA,090008.30,3116.79675225,N,12128.08194604,E,1,05,2.87,160.00,M,-21.3213,M,,*78
$GPGGA,090008.40,3116.79675225,N,12128.08194604,E,1,05,2.87,160.00,M,-21.3213,M,,*7F
$GPGGA,090008.50,3116.79675225,N,12128.08194604,E,1,05,2.87,160.00,M,-21.3213,M,,*7E
$GPGGA,090008.60,3116.79675225,N,12128.08194604,E,1,05,2.87,160.00,M,-21.3213,M,,*7D
$GPGGA,090008.70,3116.79675225,N,12128.08194604,E,1,05,2.87,160.00,M,-21.3213,M,,*7C
$GPGGA,090008.80,3116.79675225,N,12128.08194604,E,1,05,2.87,160.00,M,-21.3213,M,,*73
$GPGGA,090008.90,3116.79675225,N,12128.08194604,E,1,05,2.87,160.00,M,-21.3213,M,,*72
$GPGGA,090009.00,3116.79675225,N,12128.08194604,E,1,05,2.87,160.00,M,-21.3213,M,,*7A
$GPGGA,090009.10,3116.79675225,N,12128.08194604,E,1,05,2.87,160.00,M,-21.3213,M,,*7B
$GPGGA,090009.20,3116.79675225,N,12128.08194604,E,1,05,2.87,160.00,M,-21.3213,M,,*78
$GPGGA,090009.30,3116.79675225,N,12128.08194604,E,1,05,2.87,160.00,M,-21.3213,M,,*79
$GPGGA,090009.40,3116.79675225,N,12128.08194604,E,1,05,2.87,160.00,M,-21.3213,M,,*7E
$GPGGA,090009.50,3116.79675225,N,12128.08194604,E,1,05,2.87,160.00,M,-21.3213,M,,*7F
$GPGGA,090009.60,3116.79675225,N,12128.08194604,E,1,05,2.87,160.00,M,-21.3213,M,,*7C
$GPGGA,090009.70,3116.79675225,N,12128.08194604,E,1,05,2.87,160.00,M,-21.3213,M,,*7D
$GPGGA,090009.80,3116.79675225,N,12128.08194604,E,1,05,2.87,160.00,M,-21.3213,M,,*72
$GPGGA,090009.90,3116.79675225,N,12128.08194604,E,1,05,2.87,160.00,M,-21.3213,M,,*73
$GPGGA,090010.00,3116.79675225,N,12128.08194604,E,1,05,2.87,160.00,M,-21.3213,M,,*72
$GPGGA,090010.10,3116.79675225,N,12128.08194604,E,1,05,2.87,160.00,M,-21.3213,M,,*73
$GPGGA,090010.20,3116.79675225,N,12128.08194604,E,1,05,2.87,160.00,M,-21.3213,M,,*70
$GPGGA,090010.30,3116.79675225,N,12128.08194604,E,1,05,2.87,160.00,M,-21.3213,M,,*71
$GPGGA,090010.40,3116.79675225,N,12128.08194604,E,1,05,2.87,160.00,M,-21.3213,M,,*76
$GPGGA,090010.50,3116.79675225,N,12128.08194604,E,1,05,2.87,160.00,M,-21.3213,M,,*77
$GPGGA,090010.60,3116.79675225,N,12128.08194604,E,1,05,2.87,160.00,M,-21.3213,M,,*74
$GPGGA,090010.70,3116.79675225,N,12128.08194604,E,1,05,2.87,160.00,M,-21.3213,M,,*75
$GPGGA,090010.80,3116.79675225,N,12128.08194604,E,1,05,2.87,160.00,M,-21.3213,M,,*7A
$GPGGA,090010.90,3116.79675225,N,12128.08194604,E,1,05,2.87,160.00,M,-21.3213,M,,*7B
$GPGGA,090011.00,3116.79675225,N,12128.08194604,E,1,05,2.87,160.00,M,-21.3213,M,,*73
$GPGGA,090011.10,3116.79675225,N,12128.08194604,E,1,05,2.87,160.00,M,-21.3213,M,,*72
$GPGGA,090011.20,3116.79675225,N,12128.08194604,E,1,05,2.87,160.00,M,-21.3213,M,,*71
$GPGGA,090011.30,3116.79675225,N,12128.08194604,E,1,05,2.87,160.00,M,-21.3213,M,,*70
$GPGGA,090011.40,3116.79675225,N,12128.08194604,E,1,05,2.87,160.00,M,-21.3213,M,,*77
$GPGGA,090011.50,3116.79675225,N,12128.08194604,E,1,05,2.87,160.00,M,-21.3213,M,,*76
$GPGGA,090011.60,3116.79675225,N,12128.08194604,E,1,05,2.87,160.00,M,-21.3213,M,,*75
$GPGGA,090011.70,3116.79675225,N,12128.08194604,E,1,05,2.87,160.00,M,-21.3213,M,,*74
$GPGGA,090011.80,3116.79675225,N,12128.08194604,E,1,05,2.87,160.00,M,-21.3213,M,,*7B
$GPGGA,090011.90,3116.79675225,N,12128.08194604,E,1,05,2.87,160.00,M,-21.3213,M,,*7A
$GPGGA,090012.00,3116.79675225,N,12128.08194604,E,1,05,2.87,160.00,M,-21.3213,M,,*70
$GPGGA,090012.10,3116.79675225,N,12128.08194604,E,1,05,2.87,160.00,M,-21.3213,M,,*71
$GPGGA,090012.20,3116.79675225,N,12128.08194604,E,1,05,2.87,160.00,M,-21.3213,M,,*72
$GPGGA,090012.30,3116.79675225,N,12128.08194604,E,1,05,2.87,160.00,M,-21.3213,M,,*73
$GPGGA,090012.40,3116.79675225,N,12128.08194604,E,1,05,2.87,160.00,M,-21.3213,M,,*74
$GPGGA,090012.50,3116.79675225,N,12128.08194604,E,1,05,2.87,160.00,M,-21.3213,M,,*75
$GPGGA,090012.60,3116.79675225,N,12128.08194604,E,1,05,2.87,160.00,M,-21.3213,M,,*76
$GPGGA,090012.70,3116.79675225,N,12128.08194604,E,1,05,2.87,160.00,M,-21.3213,M,,*77
$GPGGA,090012.80,3116.79675225,N,12128.08194604,E,1,05,2.87,160.00,M,-21.3213,M,,*78
$GPGGA,090012.90,3116.79675225,N,12128.08194604,E,1,05,2.87,160.00,M,-21.3213,M,,*79
$GPGGA,090013.00,3116.79675225,N,12128.08194604,E,1,05,2.87,160.00,M,-21.3213,M,,*71
$GPGGA,090013.10,3116.79675225,N,12128.08194604,E,1,05,2.87,160.00,M,-21.3213,M,,*70
$GPGGA,090013.20,3116.79675225,N,12128.08194604,E,1,05,2.87,160.00,M,-21.3213,M,,*73
$GPGGA,090013.30,3116.79675225,N,12128.08194604,E,1,05,2.87,160.00,M,-21.3213,M,,*72
$GPGGA,090013.40,3116.79675225,N,12128.08194604,E,1,05,2.87,160.00,M,-21.3213,M,,*75
$GPGGA,090013.50,3116.79675225,N,12128.08194604,E,1,05,2.87,160.00,M,-21.3213,M,,*74
$GPGGA,090013.60,3116.79675225,N,12128.08194604,E,1,05,2.87,160.00,M,-21.3213,M,,*77
$GPGGA,090013.70,3116.79675225,N,12128.08194604,E,1,05,2.87,160.00,M,-21.3213,M,,*76
$GPGGA,090013.80,3116.79675225,N,12128.08194604,E,1,05,2.87,160.00,M,-21.3213,M,,*79
$GPGGA,090013.90,3116.79675225,N,12128.08194604,E,1,05,2.87,160.00,M,-21.3213,M,,*78
$GPGGA,090014.00,3116.79675225,N,12128.08194604,E,1,05,2.87,160.00,M,-21.3213,M,,*76
$GPGGA,090014.10,3116.79675225,N,12128.08194604,E,1,05,2.87,160.00,M,-21.3213,M,,*77
$GPGGA,090014.20,3116.79675225,N,12128.08194604,E,1,05,2.87,160.00,M,-21.3213,M,,*74
$GPGGA,090014.30,3116.79675225,N,12128.08194604,E,1,05,2.87,160.00,M,-21.3213,M,,*75
$GPGGA,090014.40,3116.79675225,N,12128.08194604,E,1,05,2.87,160.00,M,-21.3213,M,,*72
$GPGGA,090014.50,3116.79675225,N,12128.08194604,E,1,05,2.87,160.00,M,-21.3213,M,,*73
$GPGGA,090014.60,3116.79675225,N,12128.08194604,E,1,05,2.87,160.00,M,-21.3213,M,,*70
$GPGGA,090014.70,3116.79675225,N,12128.08194604,E,1,05,2.87,160.00,M,-21.3213,M,,*71
$GPGGA,090014.80,3116.79675225,N,12128.08194604,E,1,05,2.87,160.00,M,-21.3213,M,,*7E
$GPGGA,090014.90,3116.79675225,N,12128.08194604,E,1,05,2.87,160.00,M,-21.3213,M,,*7F
$GPGGA,090015.00,3116.79675225,N,12128.08194604,E,1,05,2.87,160.00,M,-21.3213,M,,*77
$GPGGA,090015.10,3116.79675225,N,12128.08194604,E,1,05,2.87,160.00,M,-21.3213,M,,*76
$GPGGA,090015.20,3116.79675225,N,12128.08194604,E,1,05,2.87,160.00,M,-21.3213,M,,*75
$GPGGA,090015.30,3116.79675225,N,12128.08194604,E,1,05,2.87,160.00,M,-21.3213,M,,*74
$GPGGA,090015.40,3116.79675225,N,12128.08194604,E,1,05,2.87,160.00,M,-21.3213,M,,*73
$GPGGA,090015.50,3116.79675225,N,12128.08194604,E,1,05,2.87,160.00,M,-21.3213,M,,*72
$GPGGA,090015.60,3116.79675225,N,12128.08194604,E,1,05,2.87,160.00,M,-21.3213,M,,*71
$GPGGA,090015.70,3116.79675225,N,12128.08194604,E,1,05,2.87,160.00,M,-21.3213,M,,*70
$GPGGA,090015.80,3116.79675225,N,12128.08194604,E,1,05,2.87,160.00,M,-21.3213,M,,*7F
$GPGGA,090015.90,3116.79675225,N,12128.08194604,E,1,05,2.87,160.00,M,-21.3213,M,,*7E
$GPGGA,090016.00,3116.79675225,N,12128.08194604,E,1,05,2.87,160.00,M,-21.3213,M,,*74
$GPGGA,090016.10,3116.79675225,N,12128.08194604,E,1,05,2.87,160.00,M,-21.3213,M,,*75
$GPGGA,090016.20,3116.79675225,N,12128.08194604,E,1,05,2.87,160.00,M,-21.3213,M,,*76
$GPGGA,090016.30,3116.79675225,N,12128.08194604,E,1,05,2.87,160.00,M,-21.3213,M,,*77
$GPGGA,090016.40,3116.79675225,N,12128.08194604,E,1,05,2.87,160.00,M,-21.3213,M,,*70
$GPGGA,090016.50,3116.79675225,N,12128.08194604,E,1,05,2.87,160.00,M,-21.3213,M,,*71
$GPGGA,090016.60,3116.79675225,N,12128.08194604,E,1,05,2.87,160.00,M,-21.3213,M,,*72
$GPGGA,090016.70,3116.79675225,N,12128.08194604,E,1,05,2.87,160.00,M,-21.3213,M,,*73
$GPGGA,090016.80,3116.79675225,N,12128.08194604,E,1,05,2.87,160.00,M,-21.3213,M,,*7C
$GPGGA,090016.90,3116.79675225,N,12128.08194604,E,1,05,2.87,160.00,M,-21.3213,M,,*7D
$GPGGA,090017.00,3116.79675225,N,12128.08194604,E,1,05,2.87,160.00,M,-21.3213,M,,*75
$GPGGA,090017.10,3116.79675225,N,12128.08194604,E,1,05,2.87,160.00,M,-21.3213,M,,*74
$GPGGA,090017.20,3116.79675225,N,12128.08194604,E,1,05,2.87,160.00,M,-21.3213,M,,*77
$GPGGA,090017.30,3116.79675225,N,12128.08194604,E,1,05,2.87,160.00,M,-21.3213,M,,*76
$GPGGA,090017.40,3116.79675225,N,12128.08194604,E,1,05,2.87,160.00,M,-21.3213,M,,*71
$GPGGA,090017.50,3116.79675225,N,12128.08194604,E,1,05,2.87,160.00,M,-21.3213,M,,*70
$GPGGA,090017.60,3116.79675225,N,12128.08194604,E,1,05,2.87,160.00,M,-21.3213,M,,*73
$GPGGA,090017.70,3116.79675225,N,12128.08194604,E,1,05,2.87,160.00,M,-21.3213,M,,*72
$GPGGA,090017.80,3116.79675225,N,12128.08194604,E,1,05,2.87,160.00,M,-21.3213,M,,*7D
$GPGGA,090017.90,3116.79675225,N,12128.08194604,E,1,05,2.87,160.00,M,-21.3213,M,,*7C
$GPGGA,090018.00,3116.79675225,N,12128.08194604,E,1,05,2.87,160.00,M,-21.3213,M,,*7A
$GPGGA,090018.10,3116.79675225,N,12128.08194604,E,1,05,2.87,160.00,M,-21.3213,M,,*7B
$GPGGA,090018.20,3116.79675225,N,12128.08194604,E,1,05,2.87,160.00,M,-21.3213,M,,*78
$GPGGA,090018.30,3116.79675225,N,12128.08194604,E,1,05,2.87,160.00,M,-21.3213,M,,*79
$GPGGA,090018.40,3116.79675225,N,12128.08194604,E,1,05,2.87,160.00,M,-21.3213,M,,*7E
$GPGGA,090018.50,3116.79675225,N,12128.08194604,E,1,05,2.87,160.00,M,-21.3213,M,,*7F
$GPGGA,090018.60,3116.79675225,N,12128.08194604,E,1,05,2.87,160.00,M,-21.3213,M,,*7C
$GPGGA,090018.70,3116.79675225,N,12128.08194604,E,1,05,2.87,160.00,M,-21.3213,M,,*7D
$GPGGA,090018.80,3116.79675225,N,12128.08194604,E,1,05,2.87,160.00,M,-21.3213,M,,*72
$GPGGA,090018.90,3116.79675225,N,12128.08194604,E,1,05,2.87,160.00,M,-21.3213,M,,*73
$GPGGA,090019.00,3116.79675225,N,12128.08194604,E,1,05,2.87,160.00,M,-21.3213,M,,*7B
$GPGGA,090019.10,3116.79675225,N,12128.08194604,E,1,05,2.87,160.00,M,-21.3213,M,,*7A
$GPGGA,090019.20,3116.79675225,N,12128.08194604,E,1,05,2.87,160.00,M,-21.3213,M,,*79
$GPGGA,090019.30,3116.79675225,N,12128.08194604,E,1,05,2.87,160.00,M,-21.3213,M,,*78
$GPGGA,090019.40,3116.79675225,N,12128.08194604,E,1,05,2.87,160.00,M,-21.3213,M,,*7F
$GPGGA,090019.50,3116.79675225,N,12128.08194604,E,1,05,2.87,160.00,M,-21.3213,M,,*7E
$GPGGA,090019.60,3116.79675225,N,12128.08194604,E,1,05,2.87,160.00,M,-21.3213,M,,*7D
$GPGGA,090019.70,3116.79675225,N,12128.08194604,E,1,05,2.87,160.00,M,-21.3213,M,,*7C
$GPGGA,090019.80,3116.79675225,N,12128.08194604,E,1,05,2.87,160.00,M,-21.3213,M,,*73
$GPGGA,090019.90,3116.79675225,N,12128.08194604,E,1,05,2.87,160.00,M,-21.3213,M,,*72
$GPGGA,090020.00,3116.79675225,N,12128.08194604,E,1,05,2.87,160.00,M,-21.3213,M,,*71
$GPGGA,090020.10,3116.79675225,N,12128.08194604,E,1,05,2.87,160.00,M,-21.3213,M,,*70
$GPGGA,090020.20,3116.79675225,N,12128.08194604,E,1,05,2.87,160.00,M,-21.3213,M,,*73
$GPGGA,090020.30,3116.79675225,N,12128.08194604,E,1,05,2.87,160.00,M,-21.3213,M,,*72
$GPGGA,090020.40,3116.79675225,N,12128.08194604,E,1,05,2.87,160.00,M,-21.3213,M,,*75
$GPGGA,090020.50,3116.79675225,N,12128.08194604,E,1,05,2.87,160.00,M,-21.3213,M,,*74
$GPGGA,090020.60,3116.79675225,N,12128.08194604,E,1,05,2.87,160.00,M,-21.3213,M,,*77
$GPGGA,090020.70,3116.79675225,N,12128.08194604,E,1,05,2.87,160.00,M,-21.3213,M,,*76
$GPGGA,090020.80,3116.79675225,N,12128.08194604,E,1,05,2.87,160.00,M,-21.3213,M,,*79
$GPGGA,090020.90,3116.79675225,N,12128.08194604,E,1,05,2.87,160.00,M,-21.3213,M,,*78
$GPGGA,090021.00,3116.79675225,N,12128.08194604,E,1,05,2.87,160.00,M,-21.3213,M,,*70
$GPGGA,090021.10,3116.79675225,N,12128.08194604,E,1,05,2.87,160.00,M,-21.3213,M,,*71
$GPGGA,090021.20,3116.79675225,N,12128.08194604,E,1,05,2.87,160.00,M,-21.3213,M,,*72
$GPGGA,090021.30,3116.79675225,N,12128.08194604,E,1,05,2.87,160.00,M,-21.3213,M,,*73
$GPGGA,090021.40,3116.79675225,N,12128.08194604,E,1,05,2.87,160.00,M,-21.3213,M,,*74
$GPGGA,090021.50,3116.79675225,N,12128.08194604,E,1,05,2.87,160.00,M,-21.3213,M,,*75
$GPGGA,090021.60,3116.79675225,N,12128.08194604,E,1,05,2.87,160.00,M,-21.3213,M,,*76
$GPGGA,090021.70,3116.79675225,N,12128.08194604,E,1,05,2.87,160.00,M,-21.3213,M,,*77
$GPGGA,090021.80,3116.79675225,N,12128.08194604,E,1,05,2.87,160.00,M,-21.3213,M,,*78
$GPGGA,090021.90,3116.79675225,N,12128.08194604,E,1,05,2.87,160.00,M,-21.3213,M,,*79
$GPGGA,090022.00,3116.79675225,N,12128.08194604,E,1,05,2.87,160.00,M,-21.3213,M,,*73
$GPGGA,090022.10,3116.79675225,N,12128.08194604,E,1,05,2.87,160.00,M,-21.3213,M,,*72
$GPGGA,090022.20,3116.79675225,N,12128.08194604,E,1,05,2.87,160.00,M,-21.3213,M,,*71
$GPGGA,090022.30,3116.79675225,N,12128.08194604,E,1,05,2.87,160.00,M,-21.3213,M,,*70
$GPGGA,090022.40,3116.79675225,N,12128.08194604,E,1,05,2.87,160.00,M,-21.3213,M,,*77
$GPGGA,090022.50,3116.79675225,N,12128.08194604,E,1,05,2.87,160.00,M,-21.3213,M,,*76
$GPGGA,090022.60,3116.79675225,N,12128.08194604,E,1,05,2.87,160.00,M,-21.3213,M,,*75
$GPGGA,090022.70,3116.79675225,N,12128.08194604,E,1,05,2.87,160.00,M,-21.3213,M,,*74
$GPGGA,090022.80,3116.79675225,N,12128.08194604,E,1,05,2.87,160.00,M,-21.3213,M,,*7B
$GPGGA,090022.90,3116.79675225,N,12128.08194604,E,1,05,2.87,160.00,M,-21.3213,M,,*7A
$GPGGA,090023.00,3116.79675225,N,12128.08194604,E,1,05,2.87,160.00,M,-21.3213,M,,*72
$GPGGA,090023.10,3116.79675225,N,12128.08194604,E,1,05,2.87,160.00,M,-21.3213,M,,*73
$GPGGA,090023.20,3116.79675225,N,12128.08194604,E,1,05,2.87,160.00,M,-21.3213,M,,*70
$GPGGA,090023.30,3116.79675225,N,12128.08194604,E,1,05,2.87,160.00,M,-21.3213,M,,*71
$GPGGA,090023.40,3116.79675225,N,12128.08194604,E,1,05,2.87,160.00,M,-21.3213,M,,*76
$GPGGA,090023.50,3116.79675225,N,12128.08194604,E,1,05,2.87,160.00,M,-21.3213,M,,*77
$GPGGA,090023.60,3116.79675225,N,12128.08194604,E,1,05,2.87,160.00,M,-21.3213,M,,*74
$GPGGA,090023.70,3116.79675225,N,12128.08194604,E,1,05,2.87,160.00,M,-21.3213,M,,*75
$GPGGA,090023.80,3116.79675225,N,12128.08194604,E,1,05,2.87,160.00,M,-21.3213,M,,*7A
$GPGGA,090023.90,3116.79675225,N,12128.08194604,E,1,05,2.87,160.00,M,-21.3213,M,,*7B
$GPGGA,090024.00,3116.79675225,N,12128.08194604,E,1,05,2.87,160.00,M,-21.3213,M,,*75
$GPGGA,090024.10,3116.79675225,N,12128.08194604,E,1,05,2.87,160.00,M,-21.3213,M,,*74
$GPGGA,090024.20,3116.79675225,N,12128.08194604,E,1,05,2.87,160.00,M,-21.3213,M,,*77
$GPGGA,090024.30,3116.79675225,N,12128.08194604,E,1,05,2.87,160.00,M,-21.3213,M,,*76
$GPGGA,090024.40,3116.79675225,N,12128.08194604,E,1,05,2.87,160.00,M,-21.3213,M,,*71
$GPGGA,090024.50,3116.79675225,N,12128.08194604,E,1,05,2.87,160.00,M,-21.3213,M,,*70
$GPGGA,090024.60,3116.79675225,N,12128.08194604,E,1,05,2.87,160.00,M,-21.3213,M,,*73
$GPGGA,090024.70,3116.79675225,N,12128.08194604,E,1,05,2.87,160.00,M,-21.3213,M,,*72
$GPGGA,090024.80,3116.79675225,N,12128.08194604,E,1,05,2.87,160.00,M,-21.3213,M,,*7D
$GPGGA,090024.90,3116.79675225,N,12128.08194604,E,1,05,2.87,160.00,M,-21.3213,M,,*7C
$GPGGA,090025.00,3116.79675225,N,12128.08194604,E,1,05,2.87,160.00,M,-21.3213,M,,*74
$GPGGA,090025.10,3116.79675225,N,12128.08194604,E,1,05,2.87,160.00,M,-21.3213,M,,*75
$GPGGA,090025.20,3116.79675225,N,12128.08194604,E,1,05,2.87,160.00,M,-21.3213,M,,*76
$GPGGA,090025.30,3116.79675225,N,12128.08194604,E,1,05,2.87,160.00,M,-21.3213,M,,*77
$GPGGA,090025.40,3116.79675225,N,12128.08194604,E,1,05,2.87,160.00,M,-21.3213,M,,*70
$GPGGA,090025.50,3116.79675225,N,12128.08194604,E,1,05,2.87,160.00,M,-21.3213,M,,*71
$GPGGA,090025.60,3116.79675225,N,12128.08194604,E,1,05,2.87,160.00,M,-21.3213,M,,*72
$GPGGA,090025.70,3116.79675225,N,12128.08194604,E,1,05,2.87,160.00,M,-21.3213,M,,*73
$GPGGA,090025.80,3116.79675225,N,12128.08194604,E,1,05,2.87,160.00,M,-21.3213,M,,*7C
$GPGGA,090025.90,3116.79675225,N,12128.08194604,E,1,05,2.87,160.00,M,-21.3213,M,,*7D
$GPGGA,090026.00,3116.79675225,N,12128.08194604,E,1,05,2.87,160.00,M,-21.3213,M,,*77
$GPGGA,090026.10,3116.79675225,N,12128.08194604,E,1,05,2.87,160.00,M,-21.3213,M,,*76
$GPGGA,090026.20,3116.79675225,N,12128.08194604,E,1,05,2.87,160.00,M,-21.3213,M,,*75
$GPGGA,090026.30,3116.79675225,N,12128.08194604,E,1,05,2.87,160.00,M,-21.3213,M,,*74
$GPGGA,090026.40,3116.79675225,N,12128.08194604,E,1,05,2.87,160.00,M,-21.3213,M,,*73
$GPGGA,090026.50,3116.79675225,N,12128.08194604,E,1,05,2.87,160.00,M,-21.3213,M,,*72
$GPGGA,090026.60,3116.79675225,N,12128.08194604,E,1,05,2.87,160.00,M,-21.3213,M,,*71
$GPGGA,090026.70,3116.79675225,N,12128.08194604,E,1,05,2.87,160.00,M,-21.3213,M,,*70
$GPGGA,090026.80,3116.79675225,N,12128.08194604,E,1,05,2.87,160.00,M,-21.3213,M,,*7F
$GPGGA,090026.90,3116.79675225,N,12128.08194604,E,1,05,2.87,160.00,M,-21.3213,M,,*7E
$GPGGA,090027.00,3116.79675225,N,12128.08194604,E,1,05,2.87,160.00,M,-21.3213,M,,*76
$GPGGA,090027.10,3116.79675225,N,12128.08194604,E,1,05,2.87,160.00,M,-21.3213,M,,*77
$GPGGA,090027.20,3116.79675225,N,12128.08194604,E,1,05,2.87,160.00,M,-21.3213,M,,*74
$GPGGA,090027.30,3116.79675225,N,12128.08194604,E,1,05,2.87,160.00,M,-21.3213,M,,*75
$GPGGA,090027.40,3116.79675225,N,12128.08194604,E,1,05,2.87,160.00,M,-21.3213,M,,*72
$GPGGA,090027.50,3116.79675225,N,12128.08194604,E,1,05,2.87,160.00,M,-21.3213,M,,*73
$GPGGA,090027.60,3116.79675225,N,12128.08194604,E,1,05,2.87,160.00,M,-21.3213,M,,*70
$GPGGA,090027.70,3116.79675225,N,12128.08194604,E,1,05,2.87,160.00,M,-21.3213,M,,*71
$GPGGA,090027.80,3116.79675225,N,12128.08194604,E,1,05,2.87,160.00,M,-21.3213,M,,*7E
$GPGGA,090027.90,3116.79675225,N,12128.08194604,E,1,05,2.87,160.00,M,-21.3213,M,,*7F
$GPGGA,090028.00,3116.79675225,N,12128.08194604,E,1,05,2.87,160.00,M,-21.3213,M,,*79
$GPGGA,090028.10,3116.79675225,N,12128.08194604,E,1,05,2.87,160.00,M,-21.3213,M,,*78
$GPGGA,090028.20,3116.79675225,N,12128.08194604,E,1,05,2.87,160.00,M,-21.3213,M,,*7B
$GPGGA,090028.30,3116.79675225,N,12128.08194604,E,1,05,2.87,160.00,M,-21.3213,M,,*7A
$GPGGA,090028.40,3116.79675225,N,12128.08194604,E,1,05,2.87,160.00,M,-21.3213,M,,*7D
$GPGGA,090028.50,3116.79675225,N,12128.08194604,E,1,05,2.87,160.00,M,-21.3213,M,,*7C
$GPGGA,090028.60,3116.79675225,N,12128.08194604,E,1,05,2.87,160.00,M,-21.3213,M,,*7F
$GPGGA,090028.70,3116.79675225,N,12128.08194604,E,1,05,2.87,160.00,M,-21.3213,M,,*7E
$GPGGA,090028.80,3116.79675225,N,12128.08194604,E,1,05,2.87,160.00,M,-21.3213,M,,*71
$GPGGA,090028.90,3116.79675225,N,12128.08194604,E,1,05,2.87,160.00,M,-21.3213,M,,*70
$GPGGA,090029.00,3116.79675225,N,12128.08194604,E,1,05,2.87,160.00,M,-21.3213,M,,*78
$GPGGA,090029.10,3116.79675225,N,12128.08194604,E,1,05,2.87,160.00,M,-21.3213,M,,*79
$GPGGA,090029.20,3116.79675225,N,12128.08194604,E,1,05,2.87,160.00,M,-21.3213,M,,*7A
$GPGGA,090029.30,3116.79675225,N,12128.08194604,E,1,05,2.87,160.00,M,-21.3213,M,,*7B
$GPGGA,090029.40,3116.79675225,N,12128.08194604,E,1,05,2.87,160.00,M,-21.3213,M,,*7C
$GPGGA,090029.50,3116.79675225,N,12128.08194604,E,1,05,2.87,160.00,M,-21.3213,M,,*7D
$GPGGA,090029.60,3116.79675225,N,12128.08194604,E,1,05,2.87,160.00,M,-21.3213,M,,*7E
$GPGGA,090029.70,3116.79675225,N,12128.08194604,E,1,05,2.87,160.00,M,-21.3213,M,,*7F
$GPGGA,090029.80,3116.79675225,N,12128.08194604,E,1,05,2.87,160.00,M,-21.3213,M,,*70
$GPGGA,090029.90,3116.79675225,N,12128.08194604,E,1,05,2.87,160.00,M,-21.3213,M,,*71
$GPGGA,090030.00,3116.79675225,N,12128.08194604,E,1,05,2.87,160.00,M,-21.3213,M,,*70
$GPGGA,090030.10,3116.79675225,N,12128.08194604,E,1,05,2.87,160.00,M,-21.3213,M,,*71
$GPGGA,090030.20,3116.79675225,N,12128.08194604,E,1,05,2.87,160.00,M,-21.3213,M,,*72
$GPGGA,090030.30,3116.79675225,N,12128.08194604,E,1,05,2.87,160.00,M,-21.3213,M,,*73
$GPGGA,090030.40,3116.79675225,N,12128.08194604,E,1,05,2.87,160.00,M,-21.3213,M,,*74
$GPGGA,090030.50,3116.79675225,N,12128.08194604,E,1,05,2.87,160.00,M,-21.3213,M,,*75
$GPGGA,090030.60,3116.79675225,N,12128.08194604,E,1,05,2.87,160.00,M,-21.3213,M,,*76
$GPGGA,090030.70,3116.79675225,N,12128.08194604,E,1,05,2.87,160.00,M,-21.3213,M,,*77
$GPGGA,090030.80,3116.79675225,N,12128.08194604,E,1,05,2.87,160.00,M,-21.3213,M,,*78
$GPGGA,090030.90,3116.79675225,N,12128.08194604,E,1,05,2.87,160.00,M,-21.3213,M,,*79
$GPGGA,090031.00,3116.79675225,N,12128.08194604,E,1,05,2.87,160.00,M,-21.3213,M,,*71
$GPGGA,090031.10,3116.79675225,N,12128.08194604,E,1,05,2.87,160.00,M,-21.3213,M,,*70
$GPGGA,090031.20,3116.79675225,N,12128.08194604,E,1,05,2.87,160.00,M,-21.3213,M,,*73
$GPGGA,090031.30,3116.79675225,N,12128.08194604,E,1,05,2.87,160.00,M,-21.3213,M,,*72
$GPGGA,090031.40,3116.79675225,N,12128.08194604,E,1,05,2.87,160.00,M,-21.3213,M,,*75
$GPGGA,090031.50,3116.79675225,N,12128.08194604,E,1,05,2.87,160.00,M,-21.3213,M,,*74
$GPGGA,090031.60,3116.79675225,N,12128.08194604,E,1,05,2.87,160.00,M,-21.3213,M,,*77
$GPGGA,090031.70,3116.79675225,N,12128.08194604,E,1,05,2.87,160.00,M,-21.3213,M,,*76
$GPGGA,090031.80,3116.79675225,N,12128.08194604,E,1,05,2.87,160.00,M,-21.3213,M,,*79
$GPGGA,090031.90,3116.79675225,N,12128.08194604,E,1,05,2.87,160.00,M,-21.3213,M,,*78
$GPGGA,090032.00,3116.79675225,N,12128.08194604,E,1,05,2.87,160.00,M,-21.3213,M,,*72
$GPGGA,090032.10,3116.79675225,N,12128.08194604,E,1,05,2.87,160.00,M,-21.3213,M,,*73
$GPGGA,090032.20,3116.79675225,N,12128.08194604,E,1,05,2.87,160.00,M,-21.3213,M,,*70
$GPGGA,090032.30,3116.79675225,N,12128.08194604,E,1,05,2.87,160.00,M,-21.3213,M,,*71
$GPGGA,090032.40,3116.79675225,N,12128.08194604,E,1,05,2.87,160.00,M,-21.3213,M,,*76
$GPGGA,090032.50,3116.79675225,N,12128.08194604,E,1,05,2.87,160.00,M,-21.3213,M,,*77
$GPGGA,090032.60,3116.79675225,N,12128.08194604,E,1,05,2.87,160.00,M,-21.3213,M,,*74
$GPGGA,090032.70,3116.79675225,N,12128.08194604,E,1,05,2.87,160.00,M,-21.3213,M,,*75
$GPGGA,090032.80,3116.79675225,N,12128.08194604,E,1,05,2.87,160.00,M,-21.3213,M,,*7A
$GPGGA,090032.90,3116.79675225,N,12128.08194604,E,1,05,2.87,160.00,M,-21.3213,M,,*7B
$GPGGA,090033.00,3116.79675225,N,12128.08194604,E,1,05,2.87,160.00,M,-21.3213,M,,*73
$GPGGA,090033.10,3116.79675225,N,12128.08194604,E,1,05,2.87,160.00,M,-21.3213,M,,*72
$GPGGA,090033.20,3116.79675225,N,12128.08194604,E,1,05,2.87,160.00,M,-21.3213,M,,*71
$GPGGA,090033.30,3116.79675225,N,12128.08194604,E,1,05,2.87,160.00,M,-21.3213,M,,*70
$GPGGA,090033.40,3116.79675225,N,12128.08194604,E,1,05,2.87,160.00,M,-21.3213,M,,*77
$GPGGA,090033.50,3116.79675225,N,12128.08194604,E,1,05,2.87,160.00,M,-21.3213,M,,*76
$GPGGA,090033.60,3116.79675225,N,12128.08194604,E,1,05,2.87,160.00,M,-21.3213,M,,*75
$GPGGA,090033.70,3116.79675225,N,12128.08194604,E,1,05,2.87,160.00,M,-21.3213,M,,*74
$GPGGA,090033.80,3116.79675225,N,12128.08194604,E,1,05,2.87,160.00,M,-21.3213,M,,*7B
$GPGGA,090033.90,3116.79675225,N,12128.08194604,E,1,05,2.87,160.00,M,-21.3213,M,,*7A
$GPGGA,090034.00,3116.79675225,N,12128.08194604,E,1,05,2.87,160.00,M,-21.3213,M,,*74
$GPGGA,090034.10,3116.79675225,N,12128.08194604,E,1,05,2.87,160.00,M,-21.3213,M,,*75
$GPGGA,090034.20,3116.79675225,N,12128.08194604,E,1,05,2.87,160.00,M,-21.3213,M,,*76
$GPGGA,090034.30,3116.79675225,N,12128.08194604,E,1,05,2.87,160.00,M,-21.3213,M,,*77
$GPGGA,090034.40,3116.79675225,N,12128.08194604,E,1,05,2.87,160.00,M,-21.3213,M,,*70
$GPGGA,090034.50,3116.79675225,N,12128.08194604,E,1,05,2.87,160.00,M,-21.3213,M,,*71
$GPGGA,090034.60,3116.79675225,N,12128.08194604,E,1,05,2.87,160.00,M,-21.3213,M,,*72
$GPGGA,090034.70,3116.79675225,N,12128.08194604,E,1,05,2.87,160.00,M,-21.3213,M,,*73
$GPGGA,090034.80,3116.79675225,N,12128.08194604,E,1,05,2.87,160.00,M,-21.3213,M,,*7C
$GPGGA,090034.90,3116.79675225,N,12128.08194604,E,1,05,2.87,160.00,M,-21.3213,M,,*7D
$GPGGA,090035.00,3116.79675225,N,12128.08194604,E,1,05,2.87,160.00,M,-21.3213,M,,*75
$GPGGA,090035.10,3116.79675225,N,12128.08194604,E,1,05,2.87,160.00,M,-21.3213,M,,*74
$GPGGA,090035.20,3116.79675225,N,12128.08194604,E,1,05,2.87,160.00,M,-21.3213,M,,*77
$GPGGA,090035.30,3116.79675225,N,12128.08194604,E,1,05,2.87,160.00,M,-21.3213,M,,*76
$GPGGA,090035.40,3116.79675225,N,12128.08194604,E,1,05,2.87,160.00,M,-21.3213,M,,*71
$GPGGA,090035.50,3116.79675225,N,12128.08194604,E,1,05,2.87,160.00,M,-21.3213,M,,*70
$GPGGA,090035.60,3116.79675225,N,12128.08194604,E,1,05,2.87,160.00,M,-21.3213,M,,*73
$GPGGA,090035.70,3116.79675225,N,12128.08194604,E,1,05,2.87,160.00,M,-21.3213,M,,*72
$GPGGA,090035.80,3116.79675225,N,12128.08194604,E,1,05,2.87,160.00,M,-21.3213,M,,*7D
$GPGGA,090035.90,3116.79675225,N,12128.08194604,E,1,05,2.87,160.00,M,-21.3213,M,,*7C
$GPGGA,090036.00,3116.79675225,N,12128.08194604,E,1,05,2.87,160.00,M,-21.3213,M,,*76
$GPGGA,090036.10,3116.79675225,N,12128.08194604,E,1,05,2.87,160.00,M,-21.3213,M,,*77
$GPGGA,090036.20,3116.79675225,N,12128.08194604,E,1,05,2.87,160.00,M,-21.3213,M,,*74
$GPGGA,090036.30,3116.79675225,N,12128.08194604,E,1,05,2.87,160.00,M,-21.3213,M,,*75
$GPGGA,090036.40,3116.79675225,N,12128.08194604,E,1,05,2.87,160.00,M,-21.3213,M,,*72
$GPGGA,090036.50,3116.79675225,N,12128.08194604,E,1,05,2.87,160.00,M,-21.3213,M,,*73
$GPGGA,090036.60,3116.79675225,N,12128.08194604,E,1,05,2.87,160.00,M,-21.3213,M,,*70
$GPGGA,090036.70,3116.79675225,N,12128.08194604,E,1,05,2.87,160.00,M,-21.3213,M,,*71
$GPGGA,090036.80,3116.79675225,N,12128.08194604,E,1,05,2.87,160.00,M,-21.3213,M,,*7E
$GPGGA,090036.90,3116.79675225,N,12128.08194604,E,1,05,2.87,160.00,M,-21.3213,M,,*7F
$GPGGA,090037.00,3116.79675225,N,12128.08194604,E,1,05,2.87,160.00,M,-21.3213,M,,*77
$GPGGA,090037.10,3116.79675225,N,12128.08194604,E,1,05,2.87,160.00,M,-21.3213,M,,*76
$GPGGA,090037.20,3116.79675225,N,12128.08194604,E,1,05,2.87,160.00,M,-21.3213,M,,*75
$GPGGA,090037.30,3116.79675225,N,12128.08194604,E,1,05,2.87,160.00,M,-21.3213,M,,*74
$GPGGA,090037.40,3116.79675225,N,12128.08194604,E,1,05,2.87,160.00,M,-21.3213,M,,*73
$GPGGA,090037.50,3116.79675225,N,12128.08194604,E,1,05,2.87,160.00,M,-21.3213,M,,*72
$GPGGA,090037.60,3116.79675225,N,12128.08194604,E,1,05,2.87,160.00,M,-21.3213,M,,*71
$GPGGA,090037.70,3116.79675225,N,12128.08194604,E,1,05,2.87,160.00,M,-21.3213,M,,*70
$GPGGA,090037.80,3116.79675225,N,12128.08194604,E,1,05,2.87,160.00,M,-21.3213,M,,*7F
$GPGGA,090037.90,3116.79675225,N,12128.08194604,E,1,05,2.87,160.00,M,-21.3213,M,,*7E
$GPGGA,090038.00,3116.79675225,N,12128.08194604,E,1,05,2.87,160.00,M,-21.3213,M,,*78
$GPGGA,090038.10,3116.79675225,N,12128.08194604,E,1,05,2.87,160.00,M,-21.3213,M,,*79
$GPGGA,090038.20,3116.79675225,N,12128.08194604,E,1,05,2.87,160.00,M,-21.3213,M,,*7A
$GPGGA,090038.30,3116.79675225,N,12128.08194604,E,1,05,2.87,160.00,M,-21.3213,M,,*7B
$GPGGA,090038.40,3116.79675225,N,12128.08194604,E,1,05,2.87,160.00,M,-21.3213,M,,*7C
$GPGGA,090038.50,3116.79675225,N,12128.08194604,E,1,05,2.87,160.00,M,-21.3213,M,,*7D
$GPGGA,090038.60,3116.79675225,N,12128.08194604,E,1,05,2.87,160.00,M,-21.3213,M,,*7E
$GPGGA,090038.70,3116.79675225,N,12128.08194604,E,1,05,2.87,160.00,M,-21.3213,M,,*7F
$GPGGA,090038.80,3116.79675225,N,12128.08194604,E,1,05,2.87,160.00,M,-21.3213,M,,*70
$GPGGA,090038.90,3116.79675225,N,12128.08194604,E,1,05,2.87,160.00,M,-21.3213,M,,*71
$GPGGA,090039.00,3116.79675225,N,12128.08194604,E,1,05,2.87,160.00,M,-21.3213,M,,*79
$GPGGA,090039.10,3116.79675225,N,12128.08194604,E,1,05,2.87,160.00,M,-21.3213,M,,*78
$GPGGA,090039.20,3116.79675225,N,12128.08194604,E,1,05,2.87,160.00,M,-21.3213,M,,*7B
$GPGGA,090039.30,3116.79675225,N,12128.08194604,E,1,05,2.87,160.00,M,-21.3213,M,,*7A
$GPGGA,090039.40,3116.79675225,N,12128.08194604,E,1,05,2.87,160.00,M,-21.3213,M,,*7D
$GPGGA,090039.50,3116.79675225,N,12128.08194604,E,1,05,2.87,160.00,M,-21.3213,M,,*7C
$GPGGA,090039.60,3116.79675225,N,12128.08194604,E,1,05,2.87,160.00,M,-21.3213,M,,*7F
$GPGGA,090039.70,3116.79675225,N,12128.08194604,E,1,05,2.87,160.00,M,-21.3213,M,,*7E
$GPGGA,090039.80,3116.79675225,N,12128.08194604,E,1,05,2.87,160.00,M,-21.3213,M,,*71
$GPGGA,090039.90,3116.79675225,N,12128.08194604,E,1,05,2.87,160.00,M,-21.3213,M,,*70
$GPGGA,090040.00,3116.79675225,N,12128.08194604,E,1,05,2.87,160.00,M,-21.3213,M,,*77
$GPGGA,090040.10,3116.79675225,N,12128.08194604,E,1,05,2.87,160.00,M,-21.3213,M,,*76
$GPGGA,090040.20,3116.79675225,N,12128.08194604,E,1,05,2.87,160.00,M,-21.3213,M,,*75
$GPGGA,090040.30,3116.79675225,N,12128.08194604,E,1,05,2.87,160.00,M,-21.3213,M,,*74
$GPGGA,090040.40,3116.79675225,N,12128.08194604,E,1,05,2.87,160.00,M,-21.3213,M,,*73
$GPGGA,090040.50,3116.79675225,N,12128.08194604,E,1,05,2.87,160.00,M,-21.3213,M,,*72
$GPGGA,090040.60,3116.79675225,N,12128.08194604,E,1,05,2.87,160.00,M,-21.3213,M,,*71
$GPGGA,090040.70,3116.79675225,N,12128.08194604,E,1,05,2.87,160.00,M,-21.3213,M,,*70
$GPGGA,090040.80,3116.79675225,N,12128.08194604,E,1,05,2.87,160.00,M,-21.3213,M,,*7F
$GPGGA,090040.90,3116.79675225,N,12128.08194604,E,1,05,2.87,160.00,M,-21.3213,M,,*7E
$GPGGA,090041.00,3116.79675225,N,12128.08194604,E,1,05,2.87,160.00,M,-21.3213,M,,*76
$GPGGA,090041.10,3116.79675225,N,12128.08194604,E,1,05,2.87,160.00,M,-21.3213,M,,*77
$GPGGA,090041.20,3116.79675225,N,12128.08194604,E,1,05,2.87,160.00,M,-21.3213,M,,*74
$GPGGA,090041.30,3116.79675225,N,12128.08194604,E,1,05,2.87,160.00,M,-21.3213,M,,*75
$GPGGA,090041.40,3116.79675225,N,12128.08194604,E,1,05,2.87,160.00,M,-21.3213,M,,*72
$GPGGA,090041.50,3116.79675225,N,12128.08194604,E,1,05,2.87,160.00,M,-21.3213,M,,*73
$GPGGA,090041.60,3116.79675225,N,12128.08194604,E,1,05,2.87,160.00,M,-21.3213,M,,*70
$GPGGA,090041.70,3116.79675225,N,12128.08194604,E,1,05,2.87,160.00,M,-21.3213,M,,*71
$GPGGA,090041.80,3116.79675225,N,12128.08194604,E,1,05,2.87,160.00,M,-21.3213,M,,*7E
$GPGGA,090041.90,3116.79675225,N,12128.08194604,E,1,05,2.87,160.00,M,-21.3213,M,,*7F
$GPGGA,090042.00,3116.79675225,N,12128.08194604,E,1,05,2.87,160.00,M,-21.3213,M,,*75
$GPGGA,090042.10,3116.79675225,N,12128.08194604,E,1,05,2.87,160.00,M,-21.3213,M,,*74
$GPGGA,090042.20,3116.79675225,N,12128.08194604,E,1,05,2.87,160.00,M,-21.3213,M,,*77
$GPGGA,090042.30,3116.79675225,N,12128.08194604,E,1,05,2.87,160.00,M,-21.3213,M,,*76
$GPGGA,090042.40,3116.79675225,N,12128.08194604,E,1,05,2.87,160.00,M,-21.3213,M,,*71
$GPGGA,090042.50,3116.79675225,N,12128.08194604,E,1,05,2.87,160.00,M,-21.3213,M,,*70
$GPGGA,090042.60,3116.79675225,N,12128.08194604,E,1,05,2.87,160.00,M,-21.3213,M,,*73
$GPGGA,090042.70,3116.79675225,N,12128.08194604,E,1,05,2.87,160.00,M,-21.3213,M,,*72
$GPGGA,090042.80,3116.79675225,N,12128.08194604,E,1,05,2.87,160.00,M,-21.3213,M,,*7D
$GPGGA,090042.90,3116.79675225,N,12128.08194604,E,1,05,2.87,160.00,M,-21.3213,M,,*7C
$GPGGA,090043.00,3116.79675225,N,12128.08194604,E,1,05,2.87,160.00,M,-21.3213,M,,*74
$GPGGA,090043.10,3116.79675225,N,12128.08194604,E,1,05,2.87,160.00,M,-21.3213,M,,*75
$GPGGA,090043.20,3116.79675225,N,12128.08194604,E,1,05,2.87,160.00,M,-21.3213,M,,*76
$GPGGA,090043.30,3116.79675225,N,12128.08194604,E,1,05,2.87,160.00,M,-21.3213,M,,*77
$GPGGA,090043.40,3116.79675225,N,12128.08194604,E,1,05,2.87,160.00,M,-21.3213,M,,*70
$GPGGA,090043.50,3116.79675225,N,12128.08194604,E,1,05,2.87,160.00,M,-21.3213,M,,*71
$GPGGA,090043.60,3116.79675225,N,12128.08194604,E,1,05,2.87,160.00,M,-21.3213,M,,*72
$GPGGA,090043.70,3116.79675225,N,12128.08194604,E,1,05,2.87,160.00,M,-21.3213,M,,*73
$GPGGA,090043.80,3116.79675225,N,12128.08194604,E,1,05,2.87,160.00,M,-21.3213,M,,*7C
$GPGGA,090043.90,3116.79675225,N,12128.08194604,E,1,05,2.87,160.00,M,-21.3213,M,,*7D
$GPGGA,090044.00,3116.79675225,N,12128.08194604,E,1,05,2.87,160.00,M,-21.3213,M,,*73
$GPGGA,090044.10,3116.79675225,N,12128.08194604,E,1,05,2.87,160.00,M,-21.3213,M,,*72
$GPGGA,090044.20,3116.79675225,N,12128.08194604,E,1,05,2.87,160.00,M,-21.3213,M,,*71
$GPGGA,090044.30,3116.79675225,N,12128.08194604,E,1,05,2.87,160.00,M,-21.3213,M,,*70
$GPGGA,090044.40,3116.79675225,N,12128.08194604,E,1,05,2.87,160.00,M,-21.3213,M,,*77
$GPGGA,090044.50,3116.79675225,N,12128.08194604,E,1,05,2.87,160.00,M,-21.3213,M,,*76
$GPGGA,090044.60,3116.79675225,N,12128.08194604,E,1,05,2.87,160.00,M,-21.3213,M,,*75
$GPGGA,090044.70,3116.79675225,N,12128.08194604,E,1,05,2.87,160.00,M,-21.3213,M,,*74
$GPGGA,090044.80,3116.79675225,N,12128.08194604,E,1,05,2.87,160.00,M,-21.3213,M,,*7B
$GPGGA,090044.90,3116.79675225,N,12128.08194604,E,1,05,2.87,160.00,M,-21.3213,M,,*7A
$GPGGA,090045.00,3116.79675225,N,12128.08194604,E,1,05,2.87,160.00,M,-21.3213,M,,*72
$GPGGA,090045.10,3116.79675225,N,12128.08194604,E,1,05,2.87,160.00,M,-21.3213,M,,*73
$GPGGA,090045.20,3116.79675225,N,12128.08194604,E,1,05,2.87,160.00,M,-21.3213,M,,*70
$GPGGA,090045.30,3116.79675225,N,12128.08194604,E,1,05,2.87,160.00,M,-21.3213,M,,*71
$GPGGA,090045.40,3116.79675225,N,12128.08194604,E,1,05,2.87,160.00,M,-21.3213,M,,*76
$GPGGA,090045.50,3116.79675225,N,12128.08194604,E,1,05,2.87,160.00,M,-21.3213,M,,*77
$GPGGA,090045.60,3116.79675225,N,12128.08194604,E,1,05,2.87,160.00,M,-21.3213,M,,*74
$GPGGA,090045.70,3116.79675225,N,12128.08194604,E,1,05,2.87,160.00,M,-21.3213,M,,*75
$GPGGA,090045.80,3116.79675225,N,12128.08194604,E,1,05,2.87,160.00,M,-21.3213,M,,*7A
$GPGGA,090045.90,3116.79675225,N,12128.08194604,E,1,05,2.87,160.00,M,-21.3213,M,,*7B
$GPGGA,090046.00,3116.79675225,N,12128.08194604,E,1,05,2.87,160.00,M,-21.3213,M,,*71
$GPGGA,090046.10,3116.79675225,N,12128.08194604,E,1,05,2.87,160.00,M,-21.3213,M,,*70
$GPGGA,090046.20,3116.79675225,N,12128.08194604,E,1,05,2.87,160.00,M,-21.3213,M,,*73
$GPGGA,090046.30,3116.79675225,N,12128.08194604,E,1,05,2.87,160.00,M,-21.3213,M,,*72
$GPGGA,090046.40,3116.79675225,N,12128.08194604,E,1,05,2.87,160.00,M,-21.3213,M,,*75
$GPGGA,090046.50,3116.79675225,N,12128.08194604,E,1,05,2.87,160.00,M,-21.3213,M,,*74
$GPGGA,090046.60,3116.79675225,N,12128.08194604,E,1,05,2.87,160.00,M,-21.3213,M,,*77
$GPGGA,090046.70,3116.79675225,N,12128.08194604,E,1,05,2.87,160.00,M,-21.3213,M,,*76
$GPGGA,090046.80,3116.79675225,N,12128.08194604,E,1,05,2.87,160.00,M,-21.3213,M,,*79
$GPGGA,090046.90,3116.79675225,N,12128.08194604,E,1,05,2.87,160.00,M,-21.3213,M,,*78
$GPGGA,090047.00,3116.79675225,N,12128.08194604,E,1,05,2.87,160.00,M,-21.3213,M,,*70
$GPGGA,090047.10,3116.79675225,N,12128.08194604,E,1,05,2.87,160.00,M,-21.3213,M,,*71
$GPGGA,090047.20,3116.79675225,N,12128.08194604,E,1,05,2.87,160.00,M,-21.3213,M,,*72
$GPGGA,090047.30,3116.79675225,N,12128.08194604,E,1,05,2.87,160.00,M,-21.3213,M,,*73
$GPGGA,090047.40,3116.79675225,N,12128.08194604,E,1,05,2.87,160.00,M,-21.3213,M,,*74
$GPGGA,090047.50,3116.79675225,N,12128.08194604,E,1,05,2.87,160.00,M,-21.3213,M,,*75
$GPGGA,090047.60,3116.79675225,N,12128.08194604,E,1,05,2.87,160.00,M,-21.3213,M,,*76
$GPGGA,090047.70,3116.79675225,N,12128.08194604,E,1,05,2.87,160.00,M,-21.3213,M,,*77
$GPGGA,090047.80,3116.79675225,N,12128.08194604,E,1,05,2.87,160.00,M,-21.3213,M,,*78
$GPGGA,090047.90,3116.79675225,N,12128.08194604,E,1,05,2.87,160.00,M,-21.3213,M,,*79
$GPGGA,090048.00,3116.79675225,N,12128.08194604,E,1,05,2.87,160.00,M,-21.3213,M,,*7F
$GPGGA,090048.10,3116.79675225,N,12128.08194604,E,1,05,2.87,160.00,M,-21.3213,M,,*7E
$GPGGA,090048.20,3116.79675225,N,12128.08194604,E,1,05,2.87,160.00,M,-21.3213,M,,*7D
$GPGGA,090048.30,3116.79675225,N,12128.08194604,E,1,05,2.87,160.00,M,-21.3213,M,,*7C
$GPGGA,090048.40,3116.79675225,N,12128.08194604,E,1,05,2.87,160.00,M,-21.3213,M,,*7B
$GPGGA,090048.50,3116.79675225,N,12128.08194604,E,1,05,2.87,160.00,M,-21.3213,M,,*7A
$GPGGA,090048.60,3116.79675225,N,12128.08194604,E,1,05,2.87,160.00,M,-21.3213,M,,*79
$GPGGA,090048.70,3116.79675225,N,12128.08194604,E,1,05,2.87,160.00,M,-21.3213,M,,*78
$GPGGA,090048.80,3116.79675225,N,12128.08194604,E,1,05,2.87,160.00,M,-21.3213,M,,*77
$GPGGA,090048.90,3116.79675225,N,12128.08194604,E,1,05,2.87,160.00,M,-21.3213,M,,*76
$GPGGA,090049.00,3116.79675225,N,12128.08194604,E,1,05,2.87,160.00,M,-21.3213,M,,*7E
$GPGGA,090049.10,3116.79675225,N,12128.08194604,E,1,05,2.87,160.00,M,-21.3213,M,,*7F
$GPGGA,090049.20,3116.79675225,N,12128.08194604,E,1,05,2.87,160.00,M,-21.3213,M,,*7C
$GPGGA,090049.30,3116.79675225,N,12128.08194604,E,1,05,2.87,160.00,M,-21.3213,M,,*7D
$GPGGA,090049.40,3116.79675225,N,12128.08194604,E,1,05,2.87,160.00,M,-21.3213,M,,*7A
$GPGGA,090049.50,3116.79675225,N,12128.08194604,E,1,05,2.87,160.00,M,-21.3213,M,,*7B
$GPGGA,090049.60,3116.79675225,N,12128.08194604,E,1,05,2.87,160.00,M,-21.3213,M,,*78
$GPGGA,090049.70,3116.79675225,N,12128.08194604,E,1,05,2.87,160.00,M,-21.3213,M,,*79
$GPGGA,090049.80,3116.79675225,N,12128.08194604,E,1,05,2.87,160.00,M,-21.3213,M,,*76
$GPGGA,090049.90,3116.79675225,N,12128.08194604,E,1,05,2.87,160.00,M,-21.3213,M,,*77
$GPGGA,090050.00,3116.79675225,N,12128.08194604,E,1,05,2.87,160.00,M,-21.3213,M,,*76
$GPGGA,090050.10,3116.79675225,N,12128.08194604,E,1,05,2.87,160.00,M,-21.3213,M,,*77
$GPGGA,090050.20,3116.79675225,N,12128.08194604,E,1,05,2.87,160.00,M,-21.3213,M,,*74
$GPGGA,090050.30,3116.79675225,N,12128.08194604,E,1,05,2.87,160.00,M,-21.3213,M,,*75
$GPGGA,090050.40,3116.79675225,N,12128.08194604,E,1,05,2.87,160.00,M,-21.3213,M,,*72
$GPGGA,090050.50,3116.79675225,N,12128.08194604,E,1,05,2.87,160.00,M,-21.3213,M,,*73
$GPGGA,090050.60,3116.79675225,N,12128.08194604,E,1,05,2.87,160.00,M,-21.3213,M,,*70
$GPGGA,090050.70,3116.79675225,N,12128.08194604,E,1,05,2.87,160.00,M,-21.3213,M,,*71
$GPGGA,090050.80,3116.79675225,N,12128.08194604,E,1,05,2.87,160.00,M,-21.3213,M,,*7E
$GPGGA,090050.90,3116.79675225,N,12128.08194604,E,1,05,2.87,160.00,M,-21.3213,M,,*7F
$GPGGA,090051.00,3116.79675225,N,12128.08194604,E,1,05,2.87,160.00,M,-21.3213,M,,*77
$GPGGA,090051.10,3116.79675225,N,12128.08194604,E,1,05,2.87,160.00,M,-21.3213,M,,*76
$GPGGA,090051.20,3116.79675225,N,12128.08194604,E,1,05,2.87,160.00,M,-21.3213,M,,*75
$GPGGA,090051.30,3116.79675225,N,12128.08194604,E,1,05,2.87,160.00,M,-21.3213,M,,*74
$GPGGA,090051.40,3116.79675225,N,12128.08194604,E,1,05,2.87,160.00,M,-21.3213,M,,*73
$GPGGA,090051.50,3116.79675225,N,12128.08194604,E,1,05,2.87,160.00,M,-21.3213,M,,*72
$GPGGA,090051.60,3116.79675225,N,12128.08194604,E,1,05,2.87,160.00,M,-21.3213,M,,*71
$GPGGA,090051.70,3116.79675225,N,12128.08194604,E,1,05,2.87,160.00,M,-21.3213,M,,*70
$GPGGA,090051.80,3116.79675225,N,12128.08194604,E,1,05,2.87,160.00,M,-21.3213,M,,*7F
$GPGGA,090051.90,3116.79675225,N,12128.08194604,E,1,05,2.87,160.00,M,-21.3213,M,,*7E
$GPGGA,090052.00,3116.79675225,N,12128.08194604,E,1,05,2.87,160.00,M,-21.3213,M,,*74
$GPGGA,090052.10,3116.79675225,N,12128.08194604,E,1,05,2.87,160.00,M,-21.3213,M,,*75
$GPGGA,090052.20,3116.79675225,N,12128.08194604,E,1,05,2.87,160.00,M,-21.3213,M,,*76
$GPGGA,090052.30,3116.79675225,N,12128.08194604,E,1,05,2.87,160.00,M,-21.3213,M,,*77
$GPGGA,090052.40,3116.79675225,N,12128.08194604,E,1,05,2.87,160.00,M,-21.3213,M,,*70
$GPGGA,090052.50,3116.79675225,N,12128.08194604,E,1,05,2.87,160.00,M,-21.3213,M,,*71
$GPGGA,090052.60,3116.79675225,N,12128.08194604,E,1,05,2.87,160.00,M,-21.3213,M,,*72
$GPGGA,090052.70,3116.79675225,N,12128.08194604,E,1,05,2.87,160.00,M,-21.3213,M,,*73
$GPGGA,090052.80,3116.79675225,N,12128.08194604,E,1,05,2.87,160.00,M,-21.3213,M,,*7C
$GPGGA,090052.90,3116.79675225,N,12128.08194604,E,1,05,2.87,160.00,M,-21.3213,M,,*7D
$GPGGA,090053.00,3116.79675225,N,12128.08194604,E,1,05,2.87,160.00,M,-21.3213,M,,*75
$GPGGA,090053.10,3116.79675225,N,12128.08194604,E,1,05,2.87,160.00,M,-21.3213,M,,*74
$GPGGA,090053.20,3116.79675225,N,12128.08194604,E,1,05,2.87,160.00,M,-21.3213,M,,*77
$GPGGA,090053.30,3116.79675225,N,12128.08194604,E,1,05,2.87,160.00,M,-21.3213,M,,*76
$GPGGA,090053.40,3116.79675225,N,12128.08194604,E,1,05,2.87,160.00,M,-21.3213,M,,*71
$GPGGA,090053.50,3116.79675225,N,12128.08194604,E,1,05,2.87,160.00,M,-21.3213,M,,*70
$GPGGA,090053.60,3116.79675225,N,12128.08194604,E,1,05,2.87,160.00,M,-21.3213,M,,*73
$GPGGA,090053.70,3116.79675225,N,12128.08194604,E,1,05,2.87,160.00,M,-21.3213,M,,*72
$GPGGA,090053.80,3116.79675225,N,12128.08194604,E,1,05,2.87,160.00,M,-21.3213,M,,*7D
$GPGGA,090053.90,3116.79675225,N,12128.08194604,E,1,05,2.87,160.00,M,-21.3213,M,,*7C
$GPGGA,090054.00,3116.79675225,N,12128.08194604,E,1,05,2.87,160.00,M,-21.3213,M,,*72
$GPGGA,090054.10,3116.79675225,N,12128.08194604,E,1,05,2.87,160.00,M,-21.3213,M,,*73
$GPGGA,090054.20,3116.79675225,N,12128.08194604,E,1,05,2.87,160.00,M,-21.3213,M,,*70
$GPGGA,090054.30,3116.79675225,N,12128.08194604,E,1,05,2.87,160.00,M,-21.3213,M,,*71
$GPGGA,090054.40,3116.79675225,N,12128.08194604,E,1,05,2.87,160.00,M,-21.3213,M,,*76
$GPGGA,090054.50,3116.79675225,N,12128.08194604,E,1,05,2.87,160.00,M,-21.3213,M,,*77
$GPGGA,090054.60,3116.79675225,N,12128.08194604,E,1,05,2.87,160.00,M,-21.3213,M,,*74
$GPGGA,090054.70,3116.79675225,N,12128.08194604,E,1,05,2.87,160.00,M,-21.3213,M,,*75
$GPGGA,090054.80,3116.79675225,N,12128.08194604,E,1,05,2.87,160.00,M,-21.3213,M,,*7A
$GPGGA,090054.90,3116.79675225,N,12128.08194604,E,1,05,2.87,160.00,M,-21.3213,M,,*7B
$GPGGA,090055.00,3116.79675225,N,12128.08194604,E,1,05,2.87,160.00,M,-21.3213,M,,*73
$GPGGA,090055.10,3116.79675225,N,12128.08194604,E,1,05,2.87,160.00,M,-21.3213,M,,*72
$GPGGA,090055.20,3116.79675225,N,12128.08194604,E,1,05,2.87,160.00,M,-21.3213,M,,*71
$GPGGA,090055.30,3116.79675225,N,12128.08194604,E,1,05,2.87,160.00,M,-21.3213,M,,*70
$GPGGA,090055.40,3116.79675225,N,12128.08194604,E,1,05,2.87,160.00,M,-21.3213,M,,*77
$GPGGA,090055.50,3116.79675225,N,12128.08194604,E,1,05,2.87,160.00,M,-21.3213,M,,*76
$GPGGA,090055.60,3116.79675225,N,12128.08194604,E,1,05,2.87,160.00,M,-21.3213,M,,*75
$GPGGA,090055.70,3116.79675225,N,12128.08194604,E,1,05,2.87,160.00,M,-21.3213,M,,*74
$GPGGA,090055.80,3116.79675225,N,12128.08194604,E,1,05,2.87,160.00,M,-21.3213,M,,*7B
$GPGGA,090055.90,3116.79675225,N,12128.08194604,E,1,05,2.87,160.00,M,-21.3213,M,,*7A
$GPGGA,090056.00,3116.79675225,N,12128.08194604,E,1,05,2.87,160.00,M,-21.3213,M,,*70
$GPGGA,090056.10,3116.79675225,N,12128.08194604,E,1,05,2.87,160.00,M,-21.3213,M,,*71
$GPGGA,090056.20,3116.79675225,N,12128.08194604,E,1,05,2.87,160.00,M,-21.3213,M,,*72
$GPGGA,090056.30,3116.79675225,N,12128.08194604,E,1,05,2.87,160.00,M,-21.3213,M,,*73
$GPGGA,090056.40,3116.79675225,N,12128.08194604,E,1,05,2.87,160.00,M,-21.3213,M,,*74
$GPGGA,090056.50,3116.79675225,N,12128.08194604,E,1,05,2.87,160.00,M,-21.3213,M,,*75
$GPGGA,090056.60,3116.79675225,N,12128.08194604,E,1,05,2.87,160.00,M,-21.3213,M,,*76
$GPGGA,090056.70,3116.79675225,N,12128.08194604,E,1,05,2.87,160.00,M,-21.3213,M,,*77
$GPGGA,090056.80,3116.79675225,N,12128.08194604,E,1,05,2.87,160.00,M,-21.3213,M,,*78
$GPGGA,090056.90,3116.79675225,N,12128.08194604,E,1,05,2.87,160.00,M,-21.3213,M,,*79
$GPGGA,090057.00,3116.79675225,N,12128.08194604,E,1,05,2.87,160.00,M,-21.3213,M,,*71
$GPGGA,090057.10,3116.79675225,N,12128.08194604,E,1,05,2.87,160.00,M,-21.3213,M,,*70
$GPGGA,090057.20,3116.79675225,N,12128.08194604,E,1,05,2.87,160.00,M,-21.3213,M,,*73
$GPGGA,090057.30,3116.79675225,N,12128.08194604,E,1,05,2.87,160.00,M,-21.3213,M,,*72
$GPGGA,090057.40,3116.79675225,N,12128.08194604,E,1,05,2.87,160.00,M,-21.3213,M,,*75
$GPGGA,090057.50,3116.79675225,N,12128.08194604,E,1,05,2.87,160.00,M,-21.3213,M,,*74
$GPGGA,090057.60,3116.79675225,N,12128.08194604,E,1,05,2.87,160.00,M,-21.3213,M,,*77
$GPGGA,090057.70,3116.79675225,N,12128.08194604,E,1,05,2.87,160.00,M,-21.3213,M,,*76
$GPGGA,090057.80,3116.79675225,N,12128.08194604,E,1,05,2.87,160.00,M,-21.3213,M,,*79
$GPGGA,090057.90,3116.79675225,N,12128.08194604,E,1,05,2.87,160.00,M,-21.3213,M,,*78
$GPGGA,090058.00,3116.79675225,N,12128.08194604,E,1,05,2.87,160.00,M,-21.3213,M,,*7E
$GPGGA,090058.10,3116.79675225,N,12128.08194604,E,1,05,2.87,160.00,M,-21.3213,M,,*7F
$GPGGA,090058.20,3116.79675225,N,12128.08194604,E,1,05,2.87,160.00,M,-21.3213,M,,*7C
$GPGGA,090058.30,3116.79675225,N,12128.08194604,E,1,05,2.87,160.00,M,-21.3213,M,,*7D
$GPGGA,090058.40,3116.79675225,N,12128.08194604,E,1,05,2.87,160.00,M,-21.3213,M,,*7A
$GPGGA,090058.50,3116.79675225,N,12128.08194604,E,1,05,2.87,160.00,M,-21.3213,M,,*7B
$GPGGA,090058.60,3116.79675225,N,12128.08194604,E,1,05,2.87,160.00,M,-21.3213,M,,*78
$GPGGA,090058.70,3116.79675225,N,12128.08194604,E,1,05,2.87,160.00,M,-21.3213,M,,*79
$GPGGA,090058.80,3116.79675225,N,12128.08194604,E,1,05,2.87,160.00,M,-21.3213,M,,*76
$GPGGA,090058.90,3116.79675225,N,12128.08194604,E,1,05,2.87,160.00,M,-21.3213,M,,*77
$GPGGA,090059.00,3116.79675225,N,12128.08194604,E,1,05,2.87,160.00,M,-21.3213,M,,*7F
$GPGGA,090059.10,3116.79675225,N,12128.08194604,E,1,05,2.87,160.00,M,-21.3213,M,,*7E
$GPGGA,090059.20,3116.79675225,N,12128.08194604,E,1,05,2.87,160.00,M,-21.3213,M,,*7D
$GPGGA,090059.30,3116.79675225,N,12128.08194604,E,1,05,2.87,160.00,M,-21.3213,M,,*7C
$GPGGA,090059.40,3116.79675225,N,12128.08194604,E,1,05,2.87,160.00,M,-21.3213,M,,*7B
$GPGGA,090059.50,3116.79675225,N,12128.08194604,E,1,05,2.87,160.00,M,-21.3213,M,,*7A
$GPGGA,090059.60,3116.79675225,N,12128.08194604,E,1,05,2.87,160.00,M,-21.3213,M,,*79
$GPGGA,090059.70,3116.79675225,N,12128.08194604,E,1,05,2.87,160.00,M,-21.3213,M,,*78
$GPGGA,090059.80,3116.79675225,N,12128.08194604,E,1,05,2.87,160.00,M,-21.3213,M,,*77
$GPGGA,090059.90,3116.79675225,N,12128.08194604,E,1,05,2.87,160.00,M,-21.3213,M,,*76
$GPGGA,090100.00,3116.79675225,N,12128.08194604,E,1,05,2.87,160.00,M,-21.3213,M,,*72
$GPGGA,090100.10,3116.79675225,N,12128.08194604,E,1,05,2.87,160.00,M,-21.3213,M,,*73
$GPGGA,090100.20,3116.79675225,N,12128.08194604,E,1,05,2.87,160.00,M,-21.3213,M,,*70
$GPGGA,090100.30,3116.79675225,N,12128.08194604,E,1,05,2.87,160.00,M,-21.3213,M,,*71
$GPGGA,090100.40,3116.79675225,N,12128.08194604,E,1,05,2.87,160.00,M,-21.3213,M,,*76
$GPGGA,090100.50,3116.79675225,N,12128.08194604,E,1,05,2.87,160.00,M,-21.3213,M,,*77
$GPGGA,090100.60,3116.79675225,N,12128.08194604,E,1,05,2.87,160.00,M,-21.3213,M,,*74
$GPGGA,090100.70,3116.79675225,N,12128.08194604,E,1,05,2.87,160.00,M,-21.3213,M,,*75
$GPGGA,090100.80,3116.79675225,N,12128.08194604,E,1,05,2.87,160.00,M,-21.3213,M,,*7A
$GPGGA,090100.90,3116.79675225,N,12128.08194604,E,1,05,2.87,160.00,M,-21.3213,M,,*7B
$GPGGA,090101.00,3116.79675225,N,12128.08194604,E,1,05,2.87,160.00,M,-21.3213,M,,*73
$GPGGA,090101.10,3116.79675225,N,12128.08194604,E,1,05,2.87,160.00,M,-21.3213,M,,*72
$GPGGA,090101.20,3116.79675225,N,12128.08194604,E,1,05,2.87,160.00,M,-21.3213,M,,*71
$GPGGA,090101.30,3116.79675225,N,12128.08194604,E,1,05,2.87,160.00,M,-21.3213,M,,*70
$GPGGA,090101.40,3116.79675225,N,12128.08194604,E,1,05,2.87,160.00,M,-21.3213,M,,*77
$GPGGA,090101.50,3116.79675225,N,12128.08194604,E,1,05,2.87,160.00,M,-21.3213,M,,*76
$GPGGA,090101.60,3116.79675225,N,12128.08194604,E,1,05,2.87,160.00,M,-21.3213,M,,*75
$GPGGA,090101.70,3116.79675225,N,12128.08194604,E,1,05,2.87,160.00,M,-21.3213,M,,*74
$GPGGA,090101.80,3116.79675225,N,12128.08194604,E,1,05,2.87,160.00,M,-21.3213,M,,*7B
$GPGGA,090101.90,3116.79675225,N,12128.08194604,E,1,05,2.87,160.00,M,-21.3213,M,,*7A
$GPGGA,090102.00,3116.79675225,N,12128.08194604,E,1,05,2.87,160.00,M,-21.3213,M,,*70
$GPGGA,090102.10,3116.79675225,N,12128.08194604,E,1,05,2.87,160.00,M,-21.3213,M,,*71
$GPGGA,090102.20,3116.79675225,N,12128.08194604,E,1,05,2.87,160.00,M,-21.3213,M,,*72
$GPGGA,090102.30,3116.79675225,N,12128.08194604,E,1,05,2.87,160.00,M,-21.3213,M,,*73
$GPGGA,090102.40,3116.79675225,N,12128.08194604,E,1,05,2.87,160.00,M,-21.3213,M,,*74
$GPGGA,090102.50,3116.79675225,N,12128.08194604,E,1,05,2.87,160.00,M,-21.3213,M,,*75
$GPGGA,090102.60,3116.79675225,N,12128.08194604,E,1,05,2.87,160.00,M,-21.3213,M,,*76
$GPGGA,090102.70,3116.79675225,N,12128.08194604,E,1,05,2.87,160.00,M,-21.3213,M,,*77
$GPGGA,090102.80,3116.79675225,N,12128.08194604,E,1,05,2.87,160.00,M,-21.3213,M,,*78
$GPGGA,090102.90,3116.79675225,N,12128.08194604,E,1,05,2.87,160.00,M,-21.3213,M,,*79
$GPGGA,090103.00,3116.79675225,N,12128.08194604,E,1,05,2.87,160.00,M,-21.3213,M,,*71
$GPGGA,090103.10,3116.79675225,N,12128.08194604,E,1,05,2.87,160.00,M,-21.3213,M,,*70
$GPGGA,090103.20,3116.79675225,N,12128.08194604,E,1,05,2.87,160.00,M,-21.3213,M,,*73
$GPGGA,090103.30,3116.79675225,N,12128.08194604,E,1,05,2.87,160.00,M,-21.3213,M,,*72
$GPGGA,090103.40,3116.79675225,N,12128.08194604,E,1,05,2.87,160.00,M,-21.3213,M,,*75
$GPGGA,090103.50,3116.79675225,N,12128.08194604,E,1,05,2.87,160.00,M,-21.3213,M,,*74
$GPGGA,090103.60,3116.79675225,N,12128.08194604,E,1,05,2.87,160.00,M,-21.3213,M,,*77
$GPGGA,090103.70,3116.79675225,N,12128.08194604,E,1,05,2.87,160.00,M,-21.3213,M,,*76
$GPGGA,090103.80,3116.79675225,N,12128.08194604,E,1,05,2.87,160.00,M,-21.3213,M,,*79
$GPGGA,090103.90,3116.79675225,N,12128.08194604,E,1,05,2.87,160.00,M,-21.3213,M,,*78
$GPGGA,090104.00,3116.79675225,N,12128.08194604,E,1,05,2.87,160.00,M,-21.3213,M,,*76
$GPGGA,090104.10,3116.79675225,N,12128.08194604,E,1,05,2.87,160.00,M,-21.3213,M,,*77
$GPGGA,090104.20,3116.79675225,N,12128.08194604,E,1,05,2.87,160.00,M,-21.3213,M,,*74
$GPGGA,090104.30,3116.79675225,N,12128.08194604,E,1,05,2.87,160.00,M,-21.3213,M,,*75
$GPGGA,090104.40,3116.79675225,N,12128.08194604,E,1,05,2.87,160.00,M,-21.3213,M,,*72
$GPGGA,090104.50,3116.79675225,N,12128.08194604,E,1,05,2.87,160.00,M,-21.3213,M,,*73
$GPGGA,090104.60,3116.79675225,N,12128.08194604,E,1,05,2.87,160.00,M,-21.3213,M,,*70
$GPGGA,090104.70,3116.79675225,N,12128.08194604,E,1,05,2.87,160.00,M,-21.3213,M,,*71
$GPGGA,090104.80,3116.79675225,N,12128.08194604,E,1,05,2.87,160.00,M,-21.3213,M,,*7E
$GPGGA,090104.90,3116.79675225,N,12128.08194604,E,1,05,2.87,160.00,M,-21.3213,M,,*7F
$GPGGA,090105.00,3116.79675225,N,12128.08194604,E,1,05,2.87,160.00,M,-21.3213,M,,*77
$GPGGA,090105.10,3116.79675225,N,12128.08194604,E,1,05,2.87,160.00,M,-21.3213,M,,*76
$GPGGA,090105.20,3116.79675225,N,12128.08194604,E,1,05,2.87,160.00,M,-21.3213,M,,*75
$GPGGA,090105.30,3116.79675225,N,12128.08194604,E,1,05,2.87,160.00,M,-21.3213,M,,*74
$GPGGA,090105.40,3116.79675225,N,12128.08194604,E,1,05,2.87,160.00,M,-21.3213,M,,*73
$GPGGA,090105.50,3116.79675225,N,12128.08194604,E,1,05,2.87,160.00,M,-21.3213,M,,*72
$GPGGA,090105.60,3116.79675225,N,12128.08194604,E,1,05,2.87,160.00,M,-21.3213,M,,*71
$GPGGA,090105.70,3116.79675225,N,12128.08194604,E,1,05,2.87,160.00,M,-21.3213,M,,*70
$GPGGA,090105.80,3116.79675225,N,12128.08194604,E,1,05,2.87,160.00,M,-21.3213,M,,*7F
$GPGGA,090105.90,3116.79675225,N,12128.08194604,E,1,05,2.87,160.00,M,-21.3213,M,,*7E
$GPGGA,090106.00,3116.79675225,N,12128.08194604,E,1,05,2.87,160.00,M,-21.3213,M,,*74
$GPGGA,090106.10,3116.79675225,N,12128.08194604,E,1,05,2.87,160.00,M,-21.3213,M,,*75
$GPGGA,090106.20,3116.79675225,N,12128.08194604,E,1,05,2.87,160.00,M,-21.3213,M,,*76
$GPGGA,090106.30,3116.79675225,N,12128.08194604,E,1,05,2.87,160.00,M,-21.3213,M,,*77
$GPGGA,090106.40,3116.79675225,N,12128.08194604,E,1,05,2.87,160.00,M,-21.3213,M,,*70
$GPGGA,090106.50,3116.79675225,N,12128.08194604,E,1,05,2.87,160.00,M,-21.3213,M,,*71
$GPGGA,090106.60,3116.79675225,N,12128.08194604,E,1,05,2.87,160.00,M,-21.3213,M,,*72
$GPGGA,090106.70,3116.79675225,N,12128.08194604,E,1,05,2.87,160.00,M,-21.3213,M,,*73
$GPGGA,090106.80,3116.79675225,N,12128.08194604,E,1,05,2.87,160.00,M,-21.3213,M,,*7C
$GPGGA,090106.90,3116.79675225,N,12128.08194604,E,1,05,2.87,160.00,M,-21.3213,M,,*7D
$GPGGA,090107.00,3116.79675225,N,12128.08194604,E,1,05,2.87,160.00,M,-21.3213,M,,*75
$GPGGA,090107.10,3116.79675225,N,12128.08194604,E,1,05,2.87,160.00,M,-21.3213,M,,*74
$GPGGA,090107.20,3116.79675225,N,12128.08194604,E,1,05,2.87,160.00,M,-21.3213,M,,*77
$GPGGA,090107.30,3116.79675225,N,12128.08194604,E,1,05,2.87,160.00,M,-21.3213,M,,*76
$GPGGA,090107.40,3116.79675225,N,12128.08194604,E,1,05,2.87,160.00,M,-21.3213,M,,*71
$GPGGA,090107.50,3116.79675225,N,12128.08194604,E,1,05,2.87,160.00,M,-21.3213,M,,*70
$GPGGA,090107.60,3116.79675225,N,12128.08194604,E,1,05,2.87,160.00,M,-21.3213,M,,*73
$GPGGA,090107.70,3116.79675225,N,12128.08194604,E,1,05,2.87,160.00,M,-21.3213,M,,*72
$GPGGA,090107.80,3116.79675225,N,12128.08194604,E,1,05,2.87,160.00,M,-21.3213,M,,*7D
$GPGGA,090107.90,3116.79675225,N,12128.08194604,E,1,05,2.87,160.00,M,-21.3213,M,,*7C
$GPGGA,090108.00,3116.79675225,N,12128.08194604,E,1,05,2.87,160.00,M,-21.3213,M,,*7A
$GPGGA,090108.10,3116.79675225,N,12128.08194604,E,1,05,2.87,160.00,M,-21.3213,M,,*7B
$GPGGA,090108.20,3116.79675225,N,12128.08194604,E,1,05,2.87,160.00,M,-21.3213,M,,*78
$GPGGA,090108.30,3116.79675225,N,12128.08194604,E,1,05,2.87,160.00,M,-21.3213,M,,*79
$GPGGA,090108.40,3116.79675225,N,12128.08194604,E,1,05,2.87,160.00,M,-21.3213,M,,*7E
$GPGGA,090108.50,3116.79675225,N,12128.08194604,E,1,05,2.87,160.00,M,-21.3213,M,,*7F
$GPGGA,090108.60,3116.79675225,N,12128.08194604,E,1,05,2.87,160.00,M,-21.3213,M,,*7C
$GPGGA,090108.70,3116.79675225,N,12128.08194604,E,1,05,2.87,160.00,M,-21.3213,M,,*7D
$GPGGA,090108.80,3116.79675225,N,12128.08194604,E,1,05,2.87,160.00,M,-21.3213,M,,*72
$GPGGA,090108.90,3116.79675225,N,12128.08194604,E,1,05,2.87,160.00,M,-21.3213,M,,*73
$GPGGA,090109.00,3116.79675225,N,12128.08194604,E,1,05,2.87,160.00,M,-21.3213,M,,*7B
$GPGGA,090109.10,3116.79675225,N,12128.08194604,E,1,05,2.87,160.00,M,-21.3213,M,,*7A
$GPGGA,090109.20,3116.79675225,N,12128.08194604,E,1,05,2.87,160.00,M,-21.3213,M,,*79
$GPGGA,090109.30,3116.79675225,N,12128.08194604,E,1,05,2.87,160.00,M,-21.3213,M,,*78
$GPGGA,090109.40,3116.79675225,N,12128.08194604,E,1,05,2.87,160.00,M,-21.3213,M,,*7F
$GPGGA,090109.50,3116.79675225,N,12128.08194604,E,1,05,2.87,160.00,M,-21.3213,M,,*7E
$GPGGA,090109.60,3116.79675225,N,12128.08194604,E,1,05,2.87,160.00,M,-21.3213,M,,*7D
